[
  {
    "id": 1,
    "dateCreated": "2017-03-23T15:17:36Z",
    "description": "Tree fell",
    "lastUpdated": "2017-03-23T15:17:36Z",
    "location": {
      "id": 1,
      "address1": "72 E Wheat Rd",
      "city": "Vineland",
      "latitude": 39.509865,
      "longitude": -75.023761,
      "postalCode": "08360",
      "state": "NJ"
    },
    "images": [
      {"url": "/static/images/IMG_2700_original.jpg"}
    ],
    "name": "Down Tree"
  },
  {
    "id": 2,
    "dateCreated": "2017-03-23T15:17:36Z",
    "description": "Bad pot hole",
    "lastUpdated": "2017-03-23T15:17:36Z",
    "location": {
      "id": 2,
      "address1": "1121 E Elmer Rd",
      "city": "Vineland",
      "latitude": 39.460765,
      "longitude": -75.006971,
      "postalCode": "08361",
      "state": "NJ"
    },
    "name": "Pothole"
  },
  {
    "id": 3,
    "dateCreated": "2017-03-23T15:17:36Z",
    "description": "Street light out",
    "lastUpdated": "2017-03-23T15:17:36Z",
    "location": {
      "id": 3,
      "address1": "291 Baylor Ave",
      "city": "Vineland",
      "latitude": 39.482431,
      "longitude": -75.050401,
      "postalCode": "08361",
      "state": "NJ"
    },
    "name": "Street Light"
  }
]